settlement_id,settlement_name_rastorgueva,name_rastorgueva_lat,settlement_name_official,settlement_name_russian,country_modern,lat,lon,coords_comment
1,Пскем,,Piskom,Пскем,Uzbekistan,41.89032,70.35903,
2,Нанай,Nanai,Nanay,Нанай,Uzbekistan,41.713541,70.107175,
3,Богустан,Bog'iston,Bog'iston,Багистан,Uzbekistan,41.695473,70.088059,
4,Брич-Мулла,Brichmulla,Burchmullo,Бурчмулла,Uzbekistan,41.600038,70.101183,
5,Кассансай,,Kosonsoy,Касансай,Uzbekistan,41.24714,71.54272,
6,Чуст,,Chust,Чуст,Uzbekistan,41.00204,71.22672,
7,Ашт,,"Ашти-Поён, Ашти-Боло","Ашти-Поён, Ашти-Боло",Tajikistan,40.811739,70.604705,
8,Понгаз,,Понғоз,Понгоз,Tajikistan,40.73799,70.25725,
9,Бобоидархон,,Бободархон,Бободархон,Tajikistan,40.71212,70.25865,
10,Шайдан,,Шайдон,Шайдон,Tajikistan,40.65906,70.347537,
11,Канибадам,,Конибодом,Канибадам,Tajikistan,40.29824,70.41938,
12,Исфара,,Исфара,Исфара,Tajikistan,40.12072,70.61573,
13,Куйбышево (Риштан),,Rishton,Риштон,Uzbekistan,40.3596,71.27914,
14,Пенджикент,,Панҷакент,Пенджикент,Tajikistan,39.49173,67.60661,
15,Зебон,,Зебон,Зебон,Tajikistan,39.44402,67.59427,
16,Филмандар,,Филмандар,Филмандар,Tajikistan,39.38465,67.75812,
17,Костарош,,Косатарош,Косатарош,Tajikistan,39.49177,67.60663,
18,Шахристан,,Шаҳристон,Шахристан,Tajikistan,39.7737,68.81684,
19,Урмитан,,Урметан,Урметан,Tajikistan,39.4454,68.25343,
20,Дар-Дар,,Дар Дар,Дар Дар,Tajikistan,39.43961,68.44571,
21,Рарз,Рарз,Рарз,Рарз,Tajikistan,39.38271,68.74828,
22,Пахурд,,Похут,Похут,Tajikistan,39.37806,68.80194,
23,Шаватки боло,,Шаватки Боло,Шаватки Боло,Tajikistan,39.40095,68.88987,
24,Вешаб,,Вешаб,Вешаб,Tajikistan,39.41245,68.93756,
25,Пети,,Пете,Пете,Tajikistan,39.249530,68.545993,
26,Пинйон,,Пинён,Пинён,Tajikistan,39.21666,68.51666,
27,Шурмашк,,Шурмашк,Шурмашк,Tajikistan,39.22972,68.47277,
28,Такфон,,Такфон,Такфон,Tajikistan,39.20548,68.62234,
29,Гончи,,Ғончӣ,Ганчи,Tajikistan,39.96252,69.13874,
30,Ура-Тюбе,,Истаравшан,Истаравшан,Tajikistan,39.87727,69.02549,
31,Матча,,Мастчоҳ,Матча,Tajikistan,40.36666,69.32053,
32,Пастигав,,Пастиғав,Пастигав,Tajikistan,39.41728,69.22464,
33,Падаск,,Падаск,Падаск,Tajikistan,39.42744,69.65733,
34,Польдорак,,Палдорак,Палдорак,Tajikistan,40.48333,69.3,
35,Рог,,Роғ,Рог,Tajikistan,39.430762,70.011262,
36,Шинглич,,Шингилич,Шингилич,Tajikistan,39.16088,70.19294,
37,Пингон,Пингон,Пингон,Пингон,Tajikistan,39.13987,70.24066,
38,Джарф,,Ҷафр,Джафр,Tajikistan,39.09916,70.59138,
39,Каланак,,Калъанак,Каланак,Tajikistan,39.06729,70.49376,
40,Новабад,,Навобод,Навабад,Tajikistan,39.01083,70.15,
41,Казнок,,Қазноқ,Казнок,Tajikistan,39.00927,70.25952,
42,Яхакпаст,,Яхакпаст,Яхакпаст,Tajikistan,39.01577,70.47725,
43,Сох,,So'x,Сох,Uzbekistan,39.95,71.13333,
44,Сары Канда,,Sarikanda,Сариканда,Uzbekistan,39.94927,71.12916,
45,Сайроб,,Сароб,Сароб,Tajikistan,37.86438,68.7705,
46,Сариосиё,,Sariosiyo,Сариасия,Uzbekistan,38.41333,67.95722,
47,Дербент,,Darband,Дербент,Uzbekistan,38.211,67.022,
48,Байсун,,Boysun,Байсун,Uzbekistan,38.20803,67.20686,
49,Пасурхи,,Boysun,Байсун,Uzbekistan,38.20818,67.1929,
50,Пугус,,Pugus,Пугус,Uzbekistan,38.85085,68.85179,
51,Деамалик,,Deamalik,Деамалик,Uzbekistan,38.86684,68.93452,
52,Варзоб Кала,,Варзоб,Варзоб,Tajikistan,38.77789,68.81579,
53,Пуштимиена,,Poshma-Kuna,Пошма-Куна,Uzbekistan,38.76843,68.20007,
54,Шурхак,,Шурхок,Шурхок,Tajikistan,38.68239,68.33425,
55,Чорбог,,Chorbag,Чорбаг,Uzbekistan,38.6715,68.76835,
56,Каратог ,,Қаратоғ,Каратог ,Tajikistan,38.55261,68.28404,
57,Гиссар,,Gissar,Гиссар,Uzbekistan,38.52772,68.55771,
58,Сари-Хосор,,Sary-Khasor,Сари-Хасор,Uzbekistan,38.53301,69.81616,
59,Саталмуш,,Satalmush,Саталмуш,Uzbekistan,38.33331,69.74964,
60,Ховалинг,,Ховалинг,Ховалинг,Tajikistan,38.33839,69.97241,
61,Бальджуан,,Бальджувон,Бальджувон,Tajikistan,38.30692,69.67462,
62,Кипчак,,Кипчак,Кипчак,Tajikistan,38.03006,69.92903,
63,Чилдара,,Chil-Dara,Чил-Дара,Uzbekistan,38.78084,70.30642,
64,Гишун,,Chishun,Чишун,Uzbekistan,38.65016,70.86762,
65,Хост,,Khost,Хост,Uzbekistan,38.54753,70.82883,
66,Джарф,,Чорв,Чорв,Tajikistan,38.47866,70.96181,
67,Султанмазор,,Мазори Ҳарзати Султон,Мазори Харзати Султон,Tajikistan,38.46884,70.06623,
68,Калай-Хумб,,Калаихум,Калаихум,Tajikistan,38.46132,70.78912,
69,Кеврон,,Kevron,Кеврон,Uzbekistan,38.47668,70.88856,
70,Умарак,,Умарак,Умарак,Tajikistan,38.44644,70.76309,
71,Егид,,Yoged,Ёгед,Uzbekistan,38.35265,70.61566,
72,Сангев,,Sangevn,Сангевн,Uzbekistan,38.27532,70.57758,
73,Муминабад,,Муминабад,Муминабад,Tajikistan,38.10564,70.03232,
74,Зыгар,,Зиғар,Зигар,Tajikistan,38.10354,70.44542,
75,Даштиджум,,Даштиҷум,Даштиджум,Tajikistan,38.01614,70.21207,
76,Сангвор,,Sangvor,Сангвор,Uzbekistan,38.77391,71.22415,
77,Поймазор,,Поймазор,Поймазор,Tajikistan,38.65341,71.9735,
78,Рованд,,Рованд,Рованд,Tajikistan,38.59656,71.84874,
79,Техарв ,,Tekharv,Техарв ,Uzbekistan,38.52721,71.69135,
80,Бунай,,Бунай,Бунай,Tajikistan,38.43077,71.5547,
81,Кырговат,,Курговад,Курговад,Tajikistan,38.42192,71.11052,
82,Пишхарв,,"Пошхарв, Дарҷоз","Пошхарв, Дарджоз",Tajikistan,38.39842,71.15471,
83,Пшихарв,,Пшихарв,Пшихарв,Tajikistan,38.40746,71.23916,"В указателе атласа указан сектор В3, а на карте кишлак находится в секторе В4."
84,Панджоб,,Pyandzh-Ob,Панджоб,Uzbekistan,37.99773,66.91865,
85,Куляб,,Куляб,Куляб,Tajikistan,37.92664,69.79948,
86,Чогаммиена,,Чагами-Боло,Чагами-Боло,Tajikistan,37.82851,69.87851,
87,Сары-Чашма,,Саричашма,Сары-Чашма,Tajikistan,37.75817,69.8388,
88,Зархачо,,Zarchakhr,Зарчахр,Uzbekistan,37.71609,70.13847,
89,Джильга,,Джилга,Джилга,Tajikistan,37.64948,69.8642,
90,Бог,,Khudzha Bog,Худжа-Бог,Uzbekistan,37.76577,69.93941,
91,Ходжагалтон,,Хочагалтон,Хочагалтон,Tajikistan,37.83834,70.06668,
92,Йол,,Йол,Йол,Tajikistan,37.75993,70.19014,
93,Афтобзамин,,Кадрави Акай Муқим,Кадрави Акай Муким,Tajikistan,37.75068,70.14384,
94,Андероб,,Андароб,Андароб,Tajikistan,37.23757,71.48424,
95,Вогдз,,Vogde,Вогда,Uzbekistan,37.11621,71.44955,
96,Казиди,,Қозидеҳ,Козидех,Tajikistan,37.01302,71.46886,
97,Бухара,,Buxoro,Бухара,Uzbekistan,39.76808,64.45557,
98,Ленинабад,,Хуҷанд,Худжанд,Tajikistan,40.2735,69.63923,
99,Самарканд,,Samarqand,Самарканд,Uzbekistan,39.65079,66.96535,